lon	lat	OBJECTID	NAME	WEB_URL	EXIT_TO_ST	LINE
-77.03934469	38.90125242	1	Farragut West	http://www.wmata.com/rail/station_detail.cfm?station_id=38	SE CORNER OF 17TH STREET NW AND I STREET NW	"blue, orange"
-77.05046475	38.90090289	2	Foggy Bottom | GWU	http://www.wmata.com/rail/station_detail.cfm?station_id=40	NW CORNER OF 23RD STREET NW AND I STREET NW	"blue, orange"
-76.94675067	38.89876265	3	Minnesota Ave	http://www.wmata.com/rail/station_detail.cfm?station_id=64	NW SIDE OF MINNESOTA AVENUE NE	orange
-77.02681716	38.8981638	4	Metro Center	http://www.wmata.com/rail/station_detail.cfm?station_id=1	SE CORNER OF G STREET NW AND 11TH STREET NW	"red, blue, orange"
-77.00720207	38.89749219	5	Union Station	http://www.wmata.com/rail/station_detail.cfm?station_id=25	NE CORNER OF 1ST STREET NE AND MASSACHUSETTS AVENUE NE	red
-77.01598703	38.89532182	6	Judiciary Sq	http://www.wmata.com/rail/station_detail.cfm?station_id=23	NE CORNER OF 4TH STREET NW AND INDIANA AVENUE NW	red
-77.02865801	38.89381031	7	Federal Triangle	http://www.wmata.com/rail/station_detail.cfm?station_id=53	RONALD REAGAN BUILDING - WEST SIDE OF 12TH STREET NW BETWEEN PENNSYLVANIA AVENUE NW AND CONSTITUTION AVENUE NW	"blue, orange"
-77.02243966	38.89394417	8	Archives | Navy Mem	http://www.wmata.com/rail/station_detail.cfm?station_id=81	NW CORNER OF 7TH STREET NW AND PENNSYLVANIA AVENUE NW	"green,yellow"
-77.02157749	38.8862549	9	L'Enfant Plaza	http://www.wmata.com/rail/station_detail.cfm?station_id=82	SE CORNER OF 7TH STREET SW AND MARYLAND AVENUE SW	"green, yellow, orange, blue"
-77.02845663	38.88725487	10	Smithsonian	http://www.wmata.com/rail/station_detail.cfm?station_id=54	SW CORNER OF INDEPENDENCE AVENUE SW AND 12TH STREET SW	"blue, orange"
-76.97704578	38.88566309	11	Stadium | Armory	http://www.wmata.com/rail/station_detail.cfm?station_id=63	NE CORNER OF 19TH STREET SE AND C STREET SE	"blue, orange"
-77.00605462	38.88556979	12	Capitol South	http://www.wmata.com/rail/station_detail.cfm?station_id=59	WEST SIDE OF 1ST STREET SE BETWEEN C STREET SE AND D STREET SE	"blue, orange"
-76.9958153	38.88425287	13	Eastern Market	http://www.wmata.com/rail/station_detail.cfm?station_id=60	SOUTH SIDE OF PENNSYLVANIA AVENUE SE BETWEEN 7TH STREET SE AND 8TH STREET SE	"blue, orange"
-76.98517369	38.88084653	14	Potomac Ave	http://www.wmata.com/rail/station_detail.cfm?station_id=61	NE CORNER OF 14TH STREET SE AND POTOMAC AVENUE SE	"blue, orange"
-77.00449748	38.87667675	15	Navy Yard-Ballpark	http://www.wmata.com/rail/station_detail.cfm?station_id=84	NW CORNER OF NEW JERSEY AVENUE SE AND M STREET SE	green
-77.01755756	38.87696202	16	Waterfront	http://www.wmata.com/rail/station_detail.cfm?station_id=83	NE CORNER OF M STREET SW AND 4TH STREET SW	green
-77.08500576	38.95890221	17	Friendship Heights Elevator	http://www.wmata.com/rail/station_detail.cfm?station_id=11	WEST SIDE OF WISCONSIN AVENUE NW BETWEEN JENIFER STREET NW AND INGOMAR STREET NW	red
-77.02174916	38.89784547	18	Gallery Pl | Chinatown Elevator	http://www.wmata.com/rail/station_detail.cfm?station_id=21	NE CORNER OF 7TH STREET NW AND F STREET NW	"red, green, yellow"
-77.0174525	38.89682971	19	Judiciary Sq NE Elevator	http://www.wmata.com/rail/station_detail.cfm?station_id=23	SOUTH SIDE OF F STREET NW BETWEEN 4TH STREET NW AND 5TH STREET NW	red
-77.01765654	38.8966537	20	Judiciary Sq SW Elevator	http://www.wmata.com/rail/station_detail.cfm?station_id=23	SOUTH SIDE OF F STREET NW BETWEEN 4TH STREET NW AND 5TH STREET NW	red
-77.02210001	38.8859854	21	L'Enfant Plaza Elevator	http://www.wmata.com/rail/station_detail.cfm?station_id=82	SW CORNER OF 7TH STREET SW AND MARYLAND AVENUE SW	"green, yellow, orange, blue"
-76.98510798	38.88107108	22	Potomac Ave Elevator	http://www.wmata.com/rail/station_detail.cfm?station_id=61	SE CORNER OF 14TH STREET SE ANDG STREET SE	"blue, orange"
-77.0285359	38.88775696	23	Smithsonian Elevator	http://www.wmata.com/rail/station_detail.cfm?station_id=54	NW CORNER OF INDEPENDENCE AVENUE SW AND 12TH STREET SW	"blue, orange"
-76.97715411	38.88592872	24	Stadium | Armory Elevator	http://www.wmata.com/rail/station_detail.cfm?station_id=63	SE CORNER OF 19TH STREET SE AND BURKE STREET SE	"blue, orange"
-77.01782397	38.97588891	25	Takoma Elevator	http://www.wmata.com/rail/station_detail.cfm?station_id=29	NE SIDE OF CEDAR STREET NW AND BLAIR ROAD NW	red
-77.06358099	38.94397019	26	Van Ness | UDC Elevator	http://www.wmata.com/rail/station_detail.cfm?station_id=9	SW CORNER OF CONNECTICUT AVENUE AND VEAZEY STREET NW	red
-77.05287622	38.92545707	27	Woodley Park Zoo | Adams Morgan Elevator	http://www.wmata.com/rail/station_detail.cfm?station_id=7	SW CORNER OF CONNECTICUT AVENUE NW AND WOODLEY STREET NW	red
-76.99507007	38.86229836	28	Anacostia	http://www.wmata.com/rail/station_detail.cfm?station_id=85	INTERSECTION OF HOWARD ROAD SE AND SHANNON PLACE SE	green
-77.00722876	38.89839952	29	Union Station	http://www.wmata.com/rail/station_detail.cfm?station_id=25	EAST OF 1ST STREET NE AND MASSACHUSETTS AVENUE NE AND G STREET NE	red
-77.01752528	38.89705976	30	Judiciary Sq	http://www.wmata.com/rail/station_detail.cfm?station_id=23	SOUTH SIDE OF F STREET NW BETWEEN 4TH STREET NW AND 5TH STREET NW	red
-77.03242969	38.92887625	31	Columbia Heights	http://www.wmata.com/rail/station_detail.cfm?station_id=75	NE CORNER OF IRVING STREET NW AND 14TH STREET NW	"green,yellow"
-77.02348545	38.88425316	32	L'Enfant Plaza	http://www.wmata.com/rail/station_detail.cfm?station_id=82	SE CORNER OF 9TH STREET SW AND D STREET SW	"green, yellow, orange, blue"
-76.97706519	38.88829078	33	Stadium | Armory	http://www.wmata.com/rail/station_detail.cfm?station_id=63	NE CORNER OF 19TH STREET SE AND INDEPENDENCE AVENUE SE	"blue, orange"
-77.08540212	38.96074805	34	Friendship Heights	http://www.wmata.com/rail/station_detail.cfm?station_id=11	NE CORNER OF WISCONSIN AVENUE NW AND WESTERN AVENUE NW	red
-76.94712485	38.89931071	35	Minnesota Ave	http://www.wmata.com/rail/station_detail.cfm?station_id=64	SW SIDE OF KENILWORTH AVENUE NE	orange
-77.08008786	38.94828421	36	Tenleytown | AU	http://www.wmata.com/rail/station_detail.cfm?station_id=10	NW CORNER OF ABLEMARLE STREET NW AND WISCONSIN AVENUE NW	red
-77.02156742	38.89754424	37	Gallery Pl | Chinatown	http://www.wmata.com/rail/station_detail.cfm?station_id=21	NE CORNER OF 7TH STREET NW AND F STREET NW	"red, green, yellow"
-76.93744926	38.89040523	38	Benning Road	http://www.wmata.com/rail/station_detail.cfm?station_id=90	NE CORNER OF BENNING ROAD NE AND CENTRAL AVENUE NE	"blue, orange"
-76.98762043	38.84465467	39	Congress Heights	http://www.wmata.com/rail/station_detail.cfm?station_id=86	SOUTH SIDE OF ALABAMA AVENUE SE AT 13TH STREET SE	green
-77.01596219	38.88500213	40	Federal Center SW	http://www.wmata.com/rail/station_detail.cfm?station_id=58	SOUTH SIDE OF D STREET SW BETWEEN 3RD STREET SW AND 4TH STREET SW	"blue, orange"
-77.029124	38.91683081	41	U St | African Amer Civil | War Mem | Cardozo	http://www.wmata.com/rail/station_detail.cfm?station_id=73	SE CORNER  OF U STREET NW AND 13TH STREET NW	"green,yellow"
-77.02082805	38.88468934	42	L'Enfant Plaza	http://www.wmata.com/rail/station_detail.cfm?station_id=82	SOUTH SIDE OF D STREET SW BETWEEN 6TH STREET SW AND 7TH STREET SW	"green, yellow, orange, blue"
-77.00713329	38.87627832	43	Navy Yard-Ballpark	http://www.wmata.com/rail/station_detail.cfm?station_id=84	NW CORNER OF HALF STREET SE AND M STREET SE	green
-76.99602289	38.86443598	44	Anacostia	http://www.wmata.com/rail/station_detail.cfm?station_id=85	NE CORNER OF HOWARD ROAD SE AND I - 295 SE	green
-76.9877776	38.84539767	45	Congress Heights	http://www.wmata.com/rail/station_detail.cfm?station_id=86	NORTH SIDE OF ALABAMA AVENUE SE AT 13TH STREET SE	green
-77.02843744	38.88907828	46	Smithsonian	http://www.wmata.com/rail/station_detail.cfm?station_id=54	NW CORNER OF JEFFERSON DRIVE SW AND 12TH STREET SW	"blue, orange"
-77.03485716	38.90116214	47	McPherson Sq	http://www.wmata.com/rail/station_detail.cfm?station_id=36	SW CORNER OF VERMONT AVENUE NW AND I STREET NW	"blue, orange"
-76.99546645	38.86216945	48	Anacostia	http://www.wmata.com/rail/station_detail.cfm?station_id=85	INTERSECTION OF HOWARD ROAD SE AND SHANNON PLACE SE	green
-77.00382853	38.90571764	49	NoMa-Gallaudet U	http://www.wmata.com/rail/station_detail.cfm?station_id=108	NORTH SIDE OF M STREET NE AT INTERSECTION WITH DELAWARE AVENUE NE	red
-77.022081	38.89387723	50	Archives | Navy Mem Elevator	http://www.wmata.com/rail/station_detail.cfm?station_id=81	NE CORNER OF 7TH STREET NW AND PENNSYLVANIA AVENUE NW	"green,yellow"
-77.00607578	38.88518068	51	Capitol South Elevator	http://www.wmata.com/rail/station_detail.cfm?station_id=59	WEST SIDE OF 1ST STREET SE BETWEEN C STREET SE AND D STREET SE	"blue, orange"
-77.05843711	38.93577698	52	Cleveland Park Elevator	http://www.wmata.com/rail/station_detail.cfm?station_id=8	EAST SIDE OF CONNECTICUT AVENUE NW BETWEEN PORTER STREET NW AND ORDWAY STREET NW	red
-76.99604045	38.88426112	53	Eastern Market Elevator	http://www.wmata.com/rail/station_detail.cfm?station_id=60	SOUTH SIDE OF PENNSYLVANIA AVENUE SE BETWEEN 7TH STREET SE AND 8TH STREET SE	"blue, orange"
-77.02831582	38.8937774	54	Federal Triangle Elevator	http://www.wmata.com/rail/station_detail.cfm?station_id=53	RONALD REAGAN BUILDING - WEST SIDE OF 12TH STREET NW BETWEEN PENNSYLVANIA AVENUE NW AND CONSTITUTION AVENUE NW	"blue, orange"
-77.02378099	38.89816592	55	Gallery Pl | Chinatown	http://www.wmata.com/rail/station_detail.cfm?station_id=21	SE CORNER OF 9TH STREET NW AND G STREET NW	"red, green, yellow"
-77.02165568	38.89964005	56	Gallery Pl | Chinatown	http://www.wmata.com/rail/station_detail.cfm?station_id=21	SE CORNER OF 7TH STREET NW AND H STREET NW	"red, green, yellow"
-77.02789388	38.89852655	57	Metro Center	http://www.wmata.com/rail/station_detail.cfm?station_id=1	NE CORNER OF G STREET NW AND 12TH STREET NW 	"red, blue, orange"
-77.02945222	38.89814113	58	Metro Center	http://www.wmata.com/rail/station_detail.cfm?station_id=1	SE CORNER OF G STREET NW AND 13TH STREET NW 	"red, blue, orange"
-77.02837555	38.89712765	59	Metro Center	http://www.wmata.com/rail/station_detail.cfm?station_id=1	SW CORNER OF F STREET NW AND 12TH STREET NW	"red, blue, orange"
-77.04013022	38.90358985	60	Farragut North	http://www.wmata.com/rail/station_detail.cfm?station_id=4	SW CORNER OF L STREET NW AND CONNECTICUT AVENUE NW	red
-77.03917955	38.90278148	61	Farragut North	http://www.wmata.com/rail/station_detail.cfm?station_id=4	NE CORNER OF 17TH STREET NW AND K STREET NW	red
-77.05900689	38.93614552	62	Cleveland Park	http://www.wmata.com/rail/station_detail.cfm?station_id=8	WEST SIDE OF CONNECTICUT AVENUE NW BETWEEN PORTER STREET NW AND ORDWAY STREET NW	red
-77.06352577	38.94455553	63	Van Ness | UDC	http://www.wmata.com/rail/station_detail.cfm?station_id=9	NW CORNER OF CONNECTICUT AVENUE NW AND VEAZEY TERRACE NW	red
-77.06399597	38.94447618	64	Van Ness | UDC	http://www.wmata.com/rail/station_detail.cfm?station_id=9	NE CORNER OF CONNECTICUT AVENUE AND VEAZEY TERRACE NW	red
-77.02471477	38.93712879	65	Georgia Ave | Petworth	http://www.wmata.com/rail/station_detail.cfm?station_id=76	WEST SIDE OF GEORGIA AVENUE NW BETWEEN QUINCY STREET NW AND NEW HAMPSHIRE AVENUE NW	"green,yellow"
-77.02416081	38.93695143	66	Georgia Ave | Petworth	http://www.wmata.com/rail/station_detail.cfm?station_id=76	NE CORNER OF GEORGIA AVENUE NW AND NEW HAMPSHIRE AVE NW	"green,yellow"
-77.03303204	38.92861892	67	Columbia Heights	http://www.wmata.com/rail/station_detail.cfm?station_id=75	SW CORNER OF IRVING STREET NW AND 14TH STREET NW	"green,yellow"
-77.04331929	38.90868289	68	Dupont Circle	http://www.wmata.com/rail/station_detail.cfm?station_id=6	SE CORNER OF 19TH STREET NW AND DUPONT CIRCLE NW	red
-77.08576533	38.96045308	69	Friendship Heights	http://www.wmata.com/rail/station_detail.cfm?station_id=11	SW CORNER OF WISCONSIN AVENUE NW AND WESTERN AVENUE NW	red
-76.99504466	38.93383432	70	Brookland | CUA	http://www.wmata.com/rail/station_detail.cfm?station_id=27	NE CORNER OF JOHN MCCORMICK ROAD NE AND MICHIGAN AVENUE NE	red
-76.93472262	38.90826751	71	Deanwood	http://www.wmata.com/rail/station_detail.cfm?station_id=65	SOUTH SIDE OF POLK STREET NE AT OLIVE STREET NE	orange
-76.93517248	38.90856083	72	Deanwood	http://www.wmata.com/rail/station_detail.cfm?station_id=65	NORTH SIDE OF MINNESOTA AVENUE NE AT 48TH STREET NE	orange
-77.02259809	38.91278133	73	Shaw | Howard Univ	http://www.wmata.com/rail/station_detail.cfm?station_id=72	NE CORNER OF R STREET NW AND 8TH STREET NW	"green,yellow"
-77.00343047	38.90728697	74	NoMa-Gallaudet U	http://www.wmata.com/rail/station_detail.cfm?station_id=108	EAST SIDE OF 2ND STREET NE AT INTERSECTION WITH N STREET NE 	red
-77.01741557	38.97510395	75	Takoma	http://www.wmata.com/rail/station_detail.cfm?station_id=29	NE SIDE OF CEDAR STREET NW AND BLAIR ROAD NW	red
-77.00249101	38.95265387	76	Fort Totten	http://www.wmata.com/rail/station_detail.cfm?station_id=28	NORTH SIDE OF GALLOWAY STREET NE	"red, green, yellow"
-77.07946249	38.94807937	77	Tenleytown | AU	http://www.wmata.com/rail/station_detail.cfm?station_id=10	NE CORNER OF ABLEMARLE STREET NW AND WISCONSIN AVENUE NW	red
-77.05853743	38.93598468	78	Cleveland Park 	http://www.wmata.com/rail/station_detail.cfm?station_id=8	EAST SIDE OF CONNECTICUT AVENUE NW BETWEEN PORTER STREET NW AND ORDWAY STREET NW	red
-76.99436828	38.93363034	79	Brookland | CUA	http://www.wmata.com/rail/station_detail.cfm?station_id=27	SW CORNER OF MICHIGAN AVENUE NE AND 9TH STREET NE	red
-77.05238323	38.92451004	80	Woodley Park Zoo | Adams Morgan	http://www.wmata.com/rail/station_detail.cfm?station_id=7	SE CORNER OF CONNECTICUT AVENUE NW AND 24TH STREET NW	red
-76.99607468	38.92047849	81	Rhode Island Ave	http://www.wmata.com/rail/station_detail.cfm?station_id=26	SOUTH SIDE OF RHODE ISLAND AVENUE NE AT RHODE ISLAND PLACE SHOPPING CENTER	red
-77.02596435	38.91679407	82	U St | African Amer Civil | War Mem | Cardozo	http://www.wmata.com/rail/station_detail.cfm?station_id=73	SW CORNER OF U STREET NW AND VERMONT AVENUE NW	"green,yellow"
-77.02168416	38.91450592	83	Shaw | Howard Univ	http://www.wmata.com/rail/station_detail.cfm?station_id=72	NE CORNER OF S STREET NW AND 7TH STREET NW	"green,yellow"
-77.0446177	38.91094578	84	Dupont Circle	http://www.wmata.com/rail/station_detail.cfm?station_id=6	SE CORNER OF 20TH STREET NW AND Q STREET NW	red
-77.03983385	38.90393046	85	Farragut North	http://www.wmata.com/rail/station_detail.cfm?station_id=4	NE CORNER OF L STREET NW AND CONNECTICUT AVENUE NW	red
-77.02214996	38.90543607	86	Mt Vernon Sq | 7th St | Convention Cen	http://www.wmata.com/rail/station_detail.cfm?station_id=70	SW CORNER OF 7TH STREET NW AND M STREET NW	"green, yellow"
-77.03213428	38.9008826	87	McPherson Sq	http://www.wmata.com/rail/station_detail.cfm?station_id=36	SW CORNER OF 14TH STREET NW AND I STREET NW	"blue, orange"
-77.04194689	38.90148104	88	Farragut West	http://www.wmata.com/rail/station_detail.cfm?station_id=38	NW CORNER OF 18TH STREET NW AND I STREET NW	"blue, orange"
-76.87240225	38.9484078	89	NEW CARROLLTON	http://www.wmata.com/rail/station_detail.cfm?station_id=68	WEST SIDE OF GARDEN CITY DR 	orange
-77.0315023	38.9942078	90	SILVER SPRING	http://www.wmata.com/rail/station_detail.cfm?station_id=31	NE CORNER OF EAST-WEST HWY AND COLESVILE RD	red
-77.18890234	38.90070778	91	W FALLS CHURCH	http://www.wmata.com/rail/station_detail.cfm?station_id=101	WEST SIDE OF DULLES TOO RD BETWEEN I - 66 W AND I -66 E 	orange
-77.16430235	39.12030782	92	SHADY GROVE	http://www.wmata.com/rail/station_detail.cfm?station_id=18	NE CORNER OF REDLAND RD AND SOMERVILLE DR 	red
-77.16500235	39.11990782	93	SHADY GROVE	http://www.wmata.com/rail/station_detail.cfm?station_id=18	NE CORNER OF REDLAND RD AND SOMERVILLE DR 	red
-76.97580227	38.84040778	94	SOUTHERN AVE	http://www.wmata.com/rail/station_detail.cfm?station_id=107	SW CORNER OF SOUTHERN AVE SE AND VALLEY TERRACE SE	green
-77.24080236	38.92930778	95	SPRING HILL	http://www.wmata.com/rail/station_detail.cfm?station_id=114	NORTH SIDE OF SPRING HILL RD 	silver
-76.91200226	39.01080781	96	GREENBELT	http://www.wmata.com/rail/station_detail.cfm?station_id=80	NE CORNER OF 53RD AVE AND LACKAWANNA ST	green
-76.93210226	38.84440778	97	SUITLAND	http://www.wmata.com/rail/station_detail.cfm?station_id=88	NORTH SIDE OF SILVER HILL RD	green
-77.08500231	38.89130778	98	COURT HOUSE	http://www.wmata.com/rail/station_detail.cfm?station_id=96	SW OF N UHLE ST AND CLARENDON BLVD	"orange, silver"
-77.08530231	38.89030778	99	COURT HOUSE	http://www.wmata.com/rail/station_detail.cfm?station_id=96	NORTHEN SIDE OF ARLINGTON COUNTY DMV SELECT BUILDING 	"orange, silver"
-77.22240236	38.91980778	100	TYSONS CORNER	http://www.wmata.com/rail/station_detail.cfm?station_id=112	NE CORNER OF TYSONS BLVD AND CHAIN BRIDGE RD 	silver
-77.23300236	38.92120778	101	GREENSBORO	http://www.wmata.com/rail/station_detail.cfm?station_id=113	EAST SIDE OF VA-7 W AND LEESBURG PIKE	silver
-77.07220231	38.89590778	102	ROSSLYN	http://www.wmata.com/rail/station_detail.cfm?station_id=41	NORTH SIDE OF WILSON BLVD BETWEEN FORT MYER DR AND N MOORE ST 	"orange, silver, blue"
-77.0535023	38.86990778	103	PENTAGON	http://www.wmata.com/rail/station_detail.cfm?station_id=43	NW CORNER OF N ROTARY RD AND S EADS ST	"blue, yellow"
-77.22840235	38.88280778	104	DUNN LORING	http://www.wmata.com/rail/station_detail.cfm?station_id=102	BY GALLOWS ROAD AND I 66 HWY 	orange
-77.20830235	38.92460779	105	MCLEAN	http://www.wmata.com/rail/station_detail.cfm?station_id=111	NE CORNER OF COLSHIRE MEADOW DR AND COLSHIRE DR	silver
-77.0538023	38.81370777	106	BRADDOCK ROAD	http://www.wmata.com/rail/station_detail.cfm?station_id=47	NW CORNER OF MT VERNON AVE AND E BRADDOCK RD 	"blue, yellow"
-77.0755023	38.79270776	107	HUNTINGTON	http://www.wmata.com/rail/station_detail.cfm?station_id=50	THE CLOSEST EXIT TO N KINGS HWY	yellow
-76.92890227	38.97830781	108	COLLEGE PARK	http://www.wmata.com/rail/station_detail.cfm?station_id=79	NORTH SIDE OF CALVERT RD BETWEEN COLUMBIA AVE AND PAINT BRANCH PKY	green
-77.12940232	38.79940776	109	VAN DORN ST	http://www.wmata.com/rail/station_detail.cfm?station_id=94	SW CORNER OF METRO RD AND EISENHOWER AVE 	blue
-77.16950233	38.76720775	110	FRANCONIA-SPRINGF'LD	http://www.wmata.com/rail/station_detail.cfm?station_id=95	SOUTH SIDE OF FRANCONIA-SPRINGFIELD PKWY	blue
-77.09520231	38.88710778	111	CLARENDON	http://www.wmata.com/rail/station_detail.cfm?station_id=97	WEST SIDE OF N HIGHLAND ST BETWEEN WILSON BLVD AND CLARENDON BLVD	"orange, silver"
-77.15660233	38.88590778	112	E FALLS CHURCH	http://www.wmata.com/rail/station_detail.cfm?station_id=100	BY N SYCAMORE ST AND I 66 HWY	"orange, silver"
-77.27140236	38.87760777	113	VIENNA	http://www.wmata.com/rail/station_detail.cfm?station_id=103	WEST SIDE OF VADEN DR BETWEEN I - 66 W AND I - 66 E	orange
-77.09780232	38.9991078	114	MEDICAL CENTER	http://www.wmata.com/rail/station_detail.cfm?station_id=13	SW SIDE OF SOUTH DR AND ROCKVILLE PIKE 	red
-77.11210232	38.88240778	115	BALLSTON	http://www.wmata.com/rail/station_detail.cfm?station_id=99	NW CORNER OF N FAIRFAX DR AND N STUART ST 	"orange, silver"
-76.87180224	38.9479078	116	NEW CARROLLTON	http://www.wmata.com/rail/station_detail.cfm?station_id=68	WEST SIDE OF GARDEN CITY DR 	orange
-77.08610231	38.9609078	117	FRIENDSHIP HEIGHTS	http://www.wmata.com/rail/station_detail.cfm?station_id=11	NE SIDE OF WESTERN AVE AND MD-355 S	red
-77.33990239	38.94690778	118	WIEHLE-RESTON EAST	http://www.wmata.com/rail/station_detail.cfm?station_id=115	EAST SIDE OF WIEHIE AVE 	silver
-76.95560227	38.9648078	119	PRINCE GEORGES PLAZA	http://www.wmata.com/rail/station_detail.cfm?station_id=78	SW CORNER OF EAST-WEST HWY AND BELCREST CENTER DR 	green
-76.95680227	38.85100778	120	NAYLOR ROAD	http://www.wmata.com/rail/station_detail.cfm?station_id=87	NORTH SIDE OF NAYLOR RD BETWEEN SUITLAND PKY AND BRANCH AVE MD-5 N 	green
-77.10340231	38.88310778	121	VIRGINIA SQUARE	http://www.wmata.com/rail/station_detail.cfm?station_id=98	SOUTH SIDE OF N FAIRFAX DR BETWEEN N NELSON ST AND N MONROE ST 	"orange, silver"
-77.07140231	38.89610778	122	ROSSLYN	http://www.wmata.com/rail/station_detail.cfm?station_id=41	NORTH SIDE OF WILSON BLVD BETWEEN N MOORE ST AND N LYNN ST 	"orange, silver, blue"
-77.0637023	38.88460778	123	ARLINGTON CEMETERY	http://www.wmata.com/rail/station_detail.cfm?station_id=42	NW CORNER OF MEMORIAL AVE AND JEFFERSON DAVIS HWY	blue
-77.0590023	38.86290778	124	PENTAGON CITY	http://www.wmata.com/rail/station_detail.cfm?station_id=44	NE CORNER OF S HAYES ST AND 12TH ST S 	"blue, yellow"
-77.08610231	38.89050778	125	COURT HOUSE	http://www.wmata.com/rail/station_detail.cfm?station_id=96	SE CORNER OF CLARENDON BLVD AND 15TH ST N	"orange, silver"
-77.09570232	38.88670778	126	CLARENDON	http://www.wmata.com/rail/station_detail.cfm?station_id=97	WEST SIDE OF N HIGHLAND ST BETWEEN WILSON BLVD AND CLARENDON BLVD	"orange, silver"
-76.89120225	38.9334078	127	LANDOVER	http://www.wmata.com/rail/station_detail.cfm?station_id=67	EAST SIDE OF US-50 E	orange
-77.05350231	39.06190782	128	GLENMONT	http://www.wmata.com/rail/station_detail.cfm?station_id=34	EAST SIDE OF GEORGIA AVE 	red
-76.92790227	38.97820781	129	COLLEGE PARK	http://www.wmata.com/rail/station_detail.cfm?station_id=79	WEST SIDE OF RIVER RD BETWEEN COLUMBIA AVE AND PAINT BRANCH PKY	green
-77.24170236	38.92840778	130	SPRING HILL	http://www.wmata.com/rail/station_detail.cfm?station_id=114	NORTH SIDE OF SPRING HILL RD 	silver
-77.0319023	38.99410781	131	SILVER SPRING	http://www.wmata.com/rail/station_detail.cfm?station_id=31	NE CORNER OF EAST-WEST HWY AND COLESVILE RD	red
-77.0544023	38.86970778	132	PENTAGON	http://www.wmata.com/rail/station_detail.cfm?station_id=43	NW CORNER OF N ROTARY RD AND S EADS ST	"blue, yellow"
-77.0437023	38.85220778	133	NATIONAL ARPT	http://www.wmata.com/rail/station_detail.cfm?station_id=93	WEST SIDE OF S SMITH BLVD 	"blue, yellow"
-77.0612023	38.80630777	134	KING STREET	http://www.wmata.com/rail/station_detail.cfm?station_id=48	NE CORNER OF CALLAHAN DR AND KING ST 	"blue, yellow"
-76.89580225	38.88670779	135	ADDISON ROAD	http://www.wmata.com/rail/station_detail.cfm?station_id=92	SW CORNER OF CENTRAL AVENUE AND ADDISON RD S 	"silver, blue"
-77.11140232	38.88190778	136	BALLSTON	http://www.wmata.com/rail/station_detail.cfm?station_id=99	SE CORNER OF N STUART ST AND N FAIRFAX DR	"orange, silver"
-77.0752023	38.79480776	137	HUNTINGTON	http://www.wmata.com/rail/station_detail.cfm?station_id=50	THE CLOSEST EXIT TO HUNTINGTON AVE	yellow
-76.96890228	38.9559078	138	WEST HYATTSVILLE	http://www.wmata.com/rail/station_detail.cfm?station_id=77	WEST SIDE OF JAMESTOWN RD 	green
-76.95560227	38.9658078	139	PRINCE GEORGES PLAZA	http://www.wmata.com/rail/station_detail.cfm?station_id=78	SW CORNER OF EAST-WEST HWY AND BELCREST CENTER DR 	green
-77.08560232	38.9612078	140	FRIENDSHIP HEIGHTS	http://www.wmata.com/rail/station_detail.cfm?station_id=11	NW SIDE OF WESTERN AVE AND MD-355 N 	red
-76.91260226	38.82700778	141	BRANCH AVENUE	http://www.wmata.com/rail/station_detail.cfm?station_id=89	WEST SIDE OF OLD SOPER RD BETWEEN AUTH WAY AND CAPITAL GATEWAY DR	green
-77.16910233	38.76670775	142	FRANCONIA-SPRINGF'LD	http://www.wmata.com/rail/station_detail.cfm?station_id=95	SOUTH SIDE OF FRANCONIA-SPRINGFIELD PKWY	blue
-77.08490231	38.89060778	143	COURT HOUSE	http://www.wmata.com/rail/station_detail.cfm?station_id=96	SE CORNER OF 15TH ST N AND N UHLE ST	"orange, silver"
-77.08500231	38.89170778	144	COURT HOUSE	http://www.wmata.com/rail/station_detail.cfm?station_id=96	NW CORNER OF N UHLE ST AND WILSON BLVD	"orange, silver"
-77.18900235	38.90110778	145	W FALLS CHURCH	http://www.wmata.com/rail/station_detail.cfm?station_id=101	WEST SIDE OF DULLES TOO RD BETWEEN I - 66 W AND I -66 E 	orange
-77.10450233	39.02880781	146	GROSVENOR	http://www.wmata.com/rail/station_detail.cfm?station_id=14	SW OF TUCKERMAN LN AND ROCKVILLE PIKE 	red
-77.12070233	39.06210782	147	TWINBROOK	http://www.wmata.com/rail/station_detail.cfm?station_id=16	WEST SIDE OF CHAPMAN AVE 	red
-77.0547023	38.86910778	148	PENTAGON	http://www.wmata.com/rail/station_detail.cfm?station_id=43	NW CORNER OF N ROTARY RD AND S EADS ST	"blue, yellow"
-77.0709023	38.80060776	149	EISENHOWER AVENUE	http://www.wmata.com/rail/station_detail.cfm?station_id=49	SOUTH SIDE OF EISENHOWER AVE	yellow
-76.91670226	38.91610779	150	CHEVERLY	http://www.wmata.com/rail/station_detail.cfm?station_id=66	SW CORNER OF JOHN HANSON HWY AND COLUMBIA PARK RD	orange
-77.09460232	38.9847078	151	BETHESDA	http://www.wmata.com/rail/station_detail.cfm?station_id=12	SW CORNER OF EAST-WEST HWY AND WISCONSIN AVE	red
-77.11260233	39.04730781	152	WHITE FLINT	http://www.wmata.com/rail/station_detail.cfm?station_id=15	NE CORNER OF ROCKVILLE PIKE AND MARINELLI RD 	red
-77.11320233	39.04720781	153	WHITE FLINT	http://www.wmata.com/rail/station_detail.cfm?station_id=15	 NW CORNER OF ROCKVILLE PIKE AND MARINELLI RD 	red
-77.14660234	39.08440782	154	ROCKVILLE	http://www.wmata.com/rail/station_detail.cfm?station_id=17	SOUTH SIDE OF PARK RD BETWEEN MD-355 N AND S STONESTREET AVE	red
-76.84490223	38.89950779	155	LARGO TOWN CENTER	http://www.wmata.com/rail/station_detail.cfm?station_id=109	WEST SIDE OF LOTTSFORD RD BETWEEN GRAND BLVD AND N HARRY S TRUMAN DR	"silver, blue"
-77.27140236	38.87780777	156	VIENNA	http://www.wmata.com/rail/station_detail.cfm?station_id=103	WEST SIDE OF VADEN DR BETWEEN I - 66 W AND I - 66 E	orange
-77.23420236	38.92070778	157	GREENSBORO	http://www.wmata.com/rail/station_detail.cfm?station_id=113	WEST SIDE OF VA-7 ELEESBURG PIKE	silver
-77.33920239	38.94830778	158	WIEHLE-RESTON EAST	http://www.wmata.com/rail/station_detail.cfm?station_id=115	EAST SIDE OF WIEHIE AVE 	silver
-77.05110231	39.03830781	159	WHEATON	http://www.wmata.com/rail/station_detail.cfm?station_id=33	SW CORNER OF REEDIE DR AND GEORGIA AVE 	red
-77.0599023	38.86260778	160	PENTAGON CITY	http://www.wmata.com/rail/station_detail.cfm?station_id=44	NW CORNER OF S HAYES ST AND 12TH ST S 	"blue, yellow"
-77.0591023	38.86260778	161	PENTAGON CITY	http://www.wmata.com/rail/station_detail.cfm?station_id=44	NE CORNER OF S HAYES ST AND 12TH ST S 	"blue, yellow"
-77.0514023	38.85800778	162	CRYSTAL CITY	http://www.wmata.com/rail/station_detail.cfm?station_id=45	NW CORNER OF 18TH ST AND S BELL ST	"blue, yellow"
-77.04470229	38.85460778	163	NATIONAL ARPT	http://www.wmata.com/rail/station_detail.cfm?station_id=93	WEST SIDE OF S SMITH BLVD	"blue, yellow"
-77.0635023	38.88420778	164	ARLINGTON CEMETERY	http://www.wmata.com/rail/station_detail.cfm?station_id=42	SW CORNER OF MEMORIAL AVE AND JEFFERSON DAVIS HWY	blue
-77.09420232	38.9836078	165	BETHESDA	http://www.wmata.com/rail/station_detail.cfm?station_id=12	NW CORNER OF MONTGOMERY LN AND MD-355 S 	red
-77.09710232	38.99900781	166	MEDICAL CENTER	http://www.wmata.com/rail/station_detail.cfm?station_id=13	SW SIDE OF SOUTH DR AND ROCKVILLE PIKE 	red
-77.14620234	39.08470782	167	ROCKVILLE	http://www.wmata.com/rail/station_detail.cfm?station_id=17	SOUTH SIDE OF PARK RD BETWEEN MD-355 N AND S STONESTREET AVE	red
-77.0312023	38.99390781	168	SILVER SPRING	http://www.wmata.com/rail/station_detail.cfm?station_id=31	NE CORNER OF EAST-WEST HWY AND COLESVILE RD	red
-77.04320231	39.01510781	169	FOREST GLEN	http://www.wmata.com/rail/station_detail.cfm?station_id=32	SW CORNER OF FOREST GLEN RD AND GEORGIA AVE	red
-77.0434023	39.01530781	170	FOREST GLEN	http://www.wmata.com/rail/station_detail.cfm?station_id=32	SW CORNER OF FOREST GLEN RD AND GEORGIA AVE	red
-77.05030231	39.03830781	171	WHEATON	http://www.wmata.com/rail/station_detail.cfm?station_id=33	SE CORNER OF REEDIE DR AND GEORGIA AVE 	red
-77.05360231	39.06170782	172	GLENMONT	http://www.wmata.com/rail/station_detail.cfm?station_id=34	EAST SIDE OF GEORGIA AVE 	red
-76.91090226	39.01090781	173	GREENBELT	http://www.wmata.com/rail/station_detail.cfm?station_id=80	NE CORNER OF 53RD AVE AND LACKAWANNA ST	green
-76.97590227	38.84050778	174	SOUTHERN AVE	http://www.wmata.com/rail/station_detail.cfm?station_id=107	SW CORNER OF SOUTHERN AVE SE AND VALLEY TERRACE SE	green
-76.91290226	38.88940779	175	CAPITOL HEIGHTS	http://www.wmata.com/rail/station_detail.cfm?station_id=91	NORTH SIDE OF DAVEY ST BETWEEN SOUTHERN AVE AND EAST CAPITOL ST 	"silver, blue"
-77.10360233	39.02890781	176	GROSVENOR	http://www.wmata.com/rail/station_detail.cfm?station_id=14	SE OF TUCKERMAN LN AND ROCKVILLE PIKE 	red
-77.12030233	39.06230782	177	TWINBROOK	http://www.wmata.com/rail/station_detail.cfm?station_id=16	WEST SIDE OF CHAPMAN AVE 	red
-77.07180231	38.89600779	178	ROSSLYN	http://www.wmata.com/rail/station_detail.cfm?station_id=41	NORTH SIDE OF WILSON BLVD BETWEEN FORT MYER DR AND N MOORE ST 	"orange, silver, blue"
-77.0508023	38.85800778	179	CRYSTAL CITY	http://www.wmata.com/rail/station_detail.cfm?station_id=45	NW CORNER OF 18TH ST AND S BELL ST	"blue, yellow"
-76.91330226	38.88920779	180	CAPITOL HEIGHTS	http://www.wmata.com/rail/station_detail.cfm?station_id=91	NORTH SIDE OF DAVEY ST BETWEEN SOUTHERN AVE AND EAST CAPITOL ST 	"silver, blue"
